{
"type": "FeatureCollection",
"crs": { "type": "name", "properties": { "name": "urn:ogc:def:crs:OGC:1.3:CRS84" } },
                                                                                                                                  
"features": [
{ "type": "Feature", "properties": { "name": "高岭(公交站)", "address": "M274路" }, "geometry": { "type": "Point", "coordinates": [ 114.543579, 22.554701 ] } },
{ "type": "Feature", "properties": { "name": "七星湾路口(公交站)", "address": "M274路;大鹏新区假日专线3路" }, "geometry": { "type": "Point", "coordinates": [ 114.546959, 22.553738 ] } },
{ "type": "Feature", "properties": { "name": "大礁村(公交站)", "address": "M274路" }, "geometry": { "type": "Point", "coordinates": [ 114.541664, 22.556709 ] } },
{ "type": "Feature", "properties": { "name": "荔枝山村(公交站)", "address": "M274路" }, "geometry": { "type": "Point", "coordinates": [ 114.53875, 22.556875 ] } },
{ "type": "Feature", "properties": { "name": "东山小学(公交站)", "address": "M274路" }, "geometry": { "type": "Point", "coordinates": [ 114.533157, 22.555433 ] } },
{ "type": "Feature", "properties": { "name": "东山码头(公交站)", "address": "M274路" }, "geometry": { "type": "Point", "coordinates": [ 114.529648, 22.554062 ] } },
{ "type": "Feature", "properties": { "name": "东山珍珠场(公交站)", "address": "M274路" }, "geometry": { "type": "Point", "coordinates": [ 114.528786, 22.553394 ] } },
{ "type": "Feature", "properties": { "name": "沙浦村(公交站)", "address": "M274路" }, "geometry": { "type": "Point", "coordinates": [ 114.528198, 22.552666 ] } },
{ "type": "Feature", "properties": { "name": "浪骑(公交站)", "address": "M274路;大鹏新区假日专线3路" }, "geometry": { "type": "Point", "coordinates": [ 114.560928, 22.553724 ] } },
{ "type": "Feature", "properties": { "name": "国家地质公园(公交站)", "address": "M423路" }, "geometry": { "type": "Point", "coordinates": [ 114.529335, 22.528559 ] } },
{ "type": "Feature", "properties": { "name": "新圩(公交站)", "address": "M274路" }, "geometry": { "type": "Point", "coordinates": [ 114.51609, 22.542175 ] } },
{ "type": "Feature", "properties": { "name": "新大村委(公交站)", "address": "833路;M274路;M423路" }, "geometry": { "type": "Point", "coordinates": [ 114.51664, 22.536285 ] } },
{ "type": "Feature", "properties": { "name": "新大市场(公交站)", "address": "833路;M274路;M423路;大鹏新区假日专线4路;大鹏新区假日专线5路" }, "geometry": { "type": "Point", "coordinates": [ 114.515274, 22.53878 ] } },
{ "type": "Feature", "properties": { "name": "新大集散中心(公交站)", "address": "833路;大鹏新区假日专线3路;大鹏新区假日专线4路;大鹏新区假日专线5路;(停运)大鹏暑期周末专线1(5月至10月运行)" }, "geometry": { "type": "Point", "coordinates": [ 114.513565, 22.540474 ] } },
{ "type": "Feature", "properties": { "name": "七娘山村口(公交站)", "address": "M423路" }, "geometry": { "type": "Point", "coordinates": [ 114.520927, 22.529011 ] } },
{ "type": "Feature", "properties": { "name": "海滨度假中心(公交站)", "address": "M274路;大鹏新区假日专线3路" }, "geometry": { "type": "Point", "coordinates": [ 114.568108, 22.546515 ] } },
{ "type": "Feature", "properties": { "name": "上下横岗(公交站)", "address": "833路;M274路" }, "geometry": { "type": "Point", "coordinates": [ 114.515121, 22.532036 ] } },
{ "type": "Feature", "properties": { "name": "南澳杨梅坑(公交站)", "address": "M274路;大鹏新区假日专线3路" }, "geometry": { "type": "Point", "coordinates": [ 114.571007, 22.544809 ] } },
{ "type": "Feature", "properties": { "name": "新大路口(公交站)", "address": "M231路" }, "geometry": { "type": "Point", "coordinates": [ 114.507309, 22.527109 ] } },
{ "type": "Feature", "properties": { "name": "大垅(公交站)", "address": "M232路" }, "geometry": { "type": "Point", "coordinates": [ 114.51236, 22.519623 ] } },
{ "type": "Feature", "properties": { "name": "国际自行车赛场(公交站)", "address": "B852路" }, "geometry": { "type": "Point", "coordinates": [ 114.204742, 22.681784 ] } },
{ "type": "Feature", "properties": { "name": "自行车赛场总站(公交站)", "address": "802路" }, "geometry": { "type": "Point", "coordinates": [ 114.204384, 22.681623 ] } },
{ "type": "Feature", "properties": { "name": "自行车赛场(公交站)", "address": "802路" }, "geometry": { "type": "Point", "coordinates": [ 114.206718, 22.682938 ] } },
{ "type": "Feature", "properties": { "name": "信息学院2(公交站)", "address": "B852路" }, "geometry": { "type": "Point", "coordinates": [ 114.213089, 22.686167 ] } },
{ "type": "Feature", "properties": { "name": "信息学院(公交站)", "address": "365路;802路;839路;B852路;E5路;E6路;E7路;E25路(原353路)..." }, "geometry": { "type": "Point", "coordinates": [ 114.213608, 22.686567 ] } },
{ "type": "Feature", "properties": { "name": "体育运动学校南(公交站)", "address": "M317路" }, "geometry": { "type": "Point", "coordinates": [ 114.208908, 22.69635 ] } },
{ "type": "Feature", "properties": { "name": "大运公园(公交站)", "address": "M315路;M322路;M367路(A线);M367路(B线)" }, "geometry": { "type": "Point", "coordinates": [ 114.211739, 22.695976 ] } },
{ "type": "Feature", "properties": { "name": "大运充电站(公交站)", "address": "M319路" }, "geometry": { "type": "Point", "coordinates": [ 114.204147, 22.699627 ] } },
{ "type": "Feature", "properties": { "name": "大运中心体育场(公交站)", "address": "M315路;M322路;M367路(A线);M367路(B线)" }, "geometry": { "type": "Point", "coordinates": [ 114.216751, 22.691637 ] } },
{ "type": "Feature", "properties": { "name": "体育运动学校西(公交站)", "address": "M317路" }, "geometry": { "type": "Point", "coordinates": [ 114.207611, 22.699396 ] } },
{ "type": "Feature", "properties": { "name": "信息学院东站(公交站)", "address": "B852路;M294路;M318路;M322路;M367路(A线);M367路(B线);M386路" }, "geometry": { "type": "Point", "coordinates": [ 114.219254, 22.689562 ] } },
{ "type": "Feature", "properties": { "name": "华师大附中(公交站)", "address": "M315路" }, "geometry": { "type": "Point", "coordinates": [ 114.207573, 22.701393 ] } },
{ "type": "Feature", "properties": { "name": "大运中心(公交站)", "address": "365路;802路;839路;B852路;E6路;E27路(原高峰专线44路);M315路;M318路..." }, "geometry": { "type": "Point", "coordinates": [ 114.219635, 22.692951 ] } },
{ "type": "Feature", "properties": { "name": "大运游泳馆(公交站)", "address": "M317路" }, "geometry": { "type": "Point", "coordinates": [ 114.214264, 22.699865 ] } },
{ "type": "Feature", "properties": { "name": "龙城水厂(公交站)", "address": "B852路;M318路;M322路;M367路(A线);M367路(B线);M386路;M446路(原B809路)" }, "geometry": { "type": "Point", "coordinates": [ 114.222305, 22.687048 ] } },
{ "type": "Feature", "properties": { "name": "信息学院东充电站(公交站)", "address": "M294路;M368路" }, "geometry": { "type": "Point", "coordinates": [ 114.222137, 22.689722 ] } },
{ "type": "Feature", "properties": { "name": "华中师大附中(公交站)", "address": "M317路;M320路" }, "geometry": { "type": "Point", "coordinates": [ 114.207481, 22.703541 ] } },
{ "type": "Feature", "properties": { "name": "二手车市场(公交站)", "address": "M386路" }, "geometry": { "type": "Point", "coordinates": [ 114.223259, 22.685726 ] } },
{ "type": "Feature", "properties": { "name": "大运中心体育馆(公交站)", "address": "M229路;M317路;M446路(原B809路)" }, "geometry": { "type": "Point", "coordinates": [ 114.219604, 22.696428 ] } },
{ "type": "Feature", "properties": { "name": "体育运动学校东(公交站)", "address": "M315路;M322路;M367路(A线);M367路(B线)" }, "geometry": { "type": "Point", "coordinates": [ 114.210396, 22.703299 ] } },
{ "type": "Feature", "properties": { "name": "龙王古庙北(公交站)", "address": "B711路" }, "geometry": { "type": "Point", "coordinates": [ 113.838562, 22.670643 ] } },
{ "type": "Feature", "properties": { "name": "龙王庙(公交站)", "address": "B711路" }, "geometry": { "type": "Point", "coordinates": [ 113.839409, 22.671827 ] } },
{ "type": "Feature", "properties": { "name": "利满达制衣有限公司(公交站)", "address": "B711路" }, "geometry": { "type": "Point", "coordinates": [ 113.835838, 22.670589 ] } },
{ "type": "Feature", "properties": { "name": "龙王古庙(公交站)", "address": "727路;B711路;B854路;M236路(原B835路);M433路;M472路(原B834路);高峰专线30路" }, "geometry": { "type": "Point", "coordinates": [ 113.837891, 22.67424 ] } },
{ "type": "Feature", "properties": { "name": "福凤路南(公交站)", "address": "727路;B711路;B854路;M236路(原B835路);M433路;M472路(原B834路);高峰专线30路" }, "geometry": { "type": "Point", "coordinates": [ 113.840935, 22.676224 ] } },
{ "type": "Feature", "properties": { "name": "天霖公司(公交站)", "address": "B711路" }, "geometry": { "type": "Point", "coordinates": [ 113.832138, 22.670517 ] } },
{ "type": "Feature", "properties": { "name": "白石厦东(公交站)", "address": "727路;B854路;M236路(原B835路);M433路;M472路(原B834路);高峰专线30路" }, "geometry": { "type": "Point", "coordinates": [ 113.834236, 22.674206 ] } },
{ "type": "Feature", "properties": { "name": "凤凰山路口(公交站)", "address": "M433路" }, "geometry": { "type": "Point", "coordinates": [ 113.837975, 22.676905 ] } },
{ "type": "Feature", "properties": { "name": "福凤路中(公交站)", "address": "727路;B711路;B854路;M236路(原B835路);M433路;高峰专线30路" }, "geometry": { "type": "Point", "coordinates": [ 113.8433, 22.679279 ] } },
{ "type": "Feature", "properties": { "name": "腾丰四路(公交站)", "address": "凤凰山节假日旅游专线" }, "geometry": { "type": "Point", "coordinates": [ 113.840103, 22.679201 ] } },
{ "type": "Feature", "properties": { "name": "红树湾国际家具城(公交站)", "address": "M251路;M252路" }, "geometry": { "type": "Point", "coordinates": [ 113.829269, 22.670183 ] } },
{ "type": "Feature", "properties": { "name": "福永家私城(公交站)", "address": "长7路(宝樟线);长28路;长58路;市汽车东站-深圳南头" }, "geometry": { "type": "Point", "coordinates": [ 113.828552, 22.667217 ] } },
{ "type": "Feature", "properties": { "name": "福永家私街(公交站)", "address": "331路;337路;362路;629路;866路;M242路;M332路;M335路..." }, "geometry": { "type": "Point", "coordinates": [ 113.828552, 22.666761 ] } },
{ "type": "Feature", "properties": { "name": "福永汽车站(站外)(公交站)", "address": "长23路;长28路" }, "geometry": { "type": "Point", "coordinates": [ 113.828827, 22.670834 ] } },
{ "type": "Feature", "properties": { "name": "福永汽车站站外(公交站)", "address": "长58路" }, "geometry": { "type": "Point", "coordinates": [ 113.828827, 22.670963 ] } },
{ "type": "Feature", "properties": { "name": "福永汽车站(公交站)", "address": "331路;337路;362路;629路;866路;E10路;E16路;K538路沙井线..." }, "geometry": { "type": "Point", "coordinates": [ 113.828529, 22.67013 ] } },
{ "type": "Feature", "properties": { "name": "怀德商贸城西(公交站)", "address": "639路" }, "geometry": { "type": "Point", "coordinates": [ 113.827705, 22.665985 ] } },
{ "type": "Feature", "properties": { "name": "怀德商贸西(公交站)", "address": "B898路" }, "geometry": { "type": "Point", "coordinates": [ 113.827705, 22.665937 ] } },
{ "type": "Feature", "properties": { "name": "福永车站(公交站)", "address": "长7路(宝樟线);长9路" }, "geometry": { "type": "Point", "coordinates": [ 113.828087, 22.67161 ] } },
{ "type": "Feature", "properties": { "name": "怀德商城(公交站)", "address": "长23路" }, "geometry": { "type": "Point", "coordinates": [ 113.828529, 22.661051 ] } },
{ "type": "Feature", "properties": { "name": "滑草场总站(公交站)", "address": "B873路" }, "geometry": { "type": "Point", "coordinates": [ 113.963348, 22.756554 ] } },
{ "type": "Feature", "properties": { "name": "光明农场大观园(公交站)", "address": "B873路" }, "geometry": { "type": "Point", "coordinates": [ 113.961655, 22.758265 ] } },
{ "type": "Feature", "properties": { "name": "迳口居委会(公交站)", "address": "B660路" }, "geometry": { "type": "Point", "coordinates": [ 113.966331, 22.764297 ] } },
{ "type": "Feature", "properties": { "name": "迳口居委(公交站)", "address": "B660路;B722路" }, "geometry": { "type": "Point", "coordinates": [ 113.966675, 22.764414 ] } },
{ "type": "Feature", "properties": { "name": "大观园路口(公交站)", "address": "B873路" }, "geometry": { "type": "Point", "coordinates": [ 113.957184, 22.759119 ] } },
{ "type": "Feature", "properties": { "name": "光明迳口新村(公交站)", "address": "B660路" }, "geometry": { "type": "Point", "coordinates": [ 113.968315, 22.764957 ] } },
{ "type": "Feature", "properties": { "name": "迳口新村(公交站)", "address": "B722路" }, "geometry": { "type": "Point", "coordinates": [ 113.968643, 22.765179 ] } },
{ "type": "Feature", "properties": { "name": "果林村路口(公交站)", "address": "B660路;B722路" }, "geometry": { "type": "Point", "coordinates": [ 113.957329, 22.76329 ] } },
{ "type": "Feature", "properties": { "name": "滑草场路口(公交站)", "address": "B873路" }, "geometry": { "type": "Point", "coordinates": [ 113.952271, 22.759235 ] } },
{ "type": "Feature", "properties": { "name": "农业科技园(公交站)", "address": "325路;B660路;B662路;B722路;M215-218路内环;M215-218路外环" }, "geometry": { "type": "Point", "coordinates": [ 113.951057, 22.759228 ] } },
{ "type": "Feature", "properties": { "name": "碧眼村口(公交站)", "address": "B663路" }, "geometry": { "type": "Point", "coordinates": [ 113.950958, 22.754488 ] } },
{ "type": "Feature", "properties": { "name": "捷达厂(公交站)", "address": "325路;B660路;B662路;B663路;B663路区间线;B722路;B873路;M215-218路内环..." }, "geometry": { "type": "Point", "coordinates": [ 113.950142, 22.759119 ] } },
{ "type": "Feature", "properties": { "name": "光明成校(公交站)", "address": "B660路;B722路" }, "geometry": { "type": "Point", "coordinates": [ 113.951981, 22.76487 ] } },
{ "type": "Feature", "properties": { "name": "迳口村路口(公交站)", "address": "325路;B660路;B662路;B722路;M215-218路内环;M215-218路外环;M436路(原301路)" }, "geometry": { "type": "Point", "coordinates": [ 113.951424, 22.764414 ] } },
{ "type": "Feature", "properties": { "name": "光明供电所(公交站)", "address": "325路;B660路;B662路;B663路;B663路区间线;B722路;B873路;M215-218路内环..." }, "geometry": { "type": "Point", "coordinates": [ 113.948692, 22.760429 ] } },
{ "type": "Feature", "properties": { "name": "深日钢材(公交站)", "address": "720路;M215-218路外环;M336路" }, "geometry": { "type": "Point", "coordinates": [ 113.949654, 22.746992 ] } },
{ "type": "Feature", "properties": { "name": "光明办事处(公交站)", "address": "B663路;B663路区间线" }, "geometry": { "type": "Point", "coordinates": [ 113.94696, 22.763416 ] } },
{ "type": "Feature", "properties": { "name": "光明体育中心(公交站)", "address": "B659路;M215-218路内环" }, "geometry": { "type": "Point", "coordinates": [ 113.949615, 22.746714 ] } },
{ "type": "Feature", "properties": { "name": "光明新区中心医院(公交站)", "address": "720路;B659路;B662路;B663路;B663路区间线;M215-218路内环;M215-218路外环;M336路" }, "geometry": { "type": "Point", "coordinates": [ 113.94603, 22.751602 ] } },
{ "type": "Feature", "properties": { "name": "光明中心站(公交站)", "address": "325路;B660路;B662路;B722路;B873路;K578路左环;M215-218路内环;M215-218路外环..." }, "geometry": { "type": "Point", "coordinates": [ 113.944885, 22.762764 ] } },
{ "type": "Feature", "properties": { "name": "安华路口(公交站)", "address": "M337路" }, "geometry": { "type": "Point", "coordinates": [ 113.98307, 22.729591 ] } },
{ "type": "Feature", "properties": { "name": "展辰涂料(公交站)", "address": "B722路;M462路" }, "geometry": { "type": "Point", "coordinates": [ 113.983124, 22.729597 ] } },
{ "type": "Feature", "properties": { "name": "展辰涂料(安华路口)(公交站)", "address": "M337路" }, "geometry": { "type": "Point", "coordinates": [ 113.983643, 22.7297 ] } },
{ "type": "Feature", "properties": { "name": "石龙仔路口(公交站)", "address": "M449路" }, "geometry": { "type": "Point", "coordinates": [ 113.991409, 22.701029 ] } },
{ "type": "Feature", "properties": { "name": "白花(公交站)", "address": "B722路;M337路;M462路" }, "geometry": { "type": "Point", "coordinates": [ 113.986473, 22.730513 ] } },
{ "type": "Feature", "properties": { "name": "石龙仔场站(公交站)", "address": "B890路外环;M244路;M442路(原B639路)" }, "geometry": { "type": "Point", "coordinates": [ 113.967937, 22.707498 ] } },
{ "type": "Feature", "properties": { "name": "浪静路中(公交站)", "address": "高峰专线91路" }, "geometry": { "type": "Point", "coordinates": [ 113.985504, 22.698851 ] } },
{ "type": "Feature", "properties": { "name": "金滔百货(公交站)", "address": "B890路外环" }, "geometry": { "type": "Point", "coordinates": [ 113.969177, 22.705187 ] } },
{ "type": "Feature", "properties": { "name": "金稻百货(公交站)", "address": "B780路;M244路;M257路(原768路);M442路(原B639路);高峰专线59路;高峰专线61路" }, "geometry": { "type": "Point", "coordinates": [ 113.969193, 22.705139 ] } },
{ "type": "Feature", "properties": { "name": "裕同工业区(公交站)", "address": "B643路;B780路;M244路;M442路(原B639路);高峰专线59路" }, "geometry": { "type": "Point", "coordinates": [ 113.967224, 22.70681 ] } },
{ "type": "Feature", "properties": { "name": "裕同公司(公交站)", "address": "B890路外环" }, "geometry": { "type": "Point", "coordinates": [ 113.967216, 22.70681 ] } },
{ "type": "Feature", "properties": { "name": "裕同集团(公交站)", "address": "M257路(原768路);高峰专线61路" }, "geometry": { "type": "Point", "coordinates": [ 113.967163, 22.706793 ] } },
{ "type": "Feature", "properties": { "name": "石龙仔总站(公交站)", "address": "789路" }, "geometry": { "type": "Point", "coordinates": [ 113.966797, 22.707361 ] } },
{ "type": "Feature", "properties": { "name": "石凹公园(公交站)", "address": "B645路;M449路" }, "geometry": { "type": "Point", "coordinates": [ 113.989708, 22.698763 ] } },
{ "type": "Feature", "properties": { "name": "大浪服装基地总站(公交站)", "address": "M301路;M420路;M450路;高峰专线15路;高峰专线38路;高峰专线91路" }, "geometry": { "type": "Point", "coordinates": [ 113.989807, 22.698763 ] } },
{ "type": "Feature", "properties": { "name": "海尔仓库(公交站)", "address": "B780路;B890路外环;M244路;M257路(原768路);M442路(原B639路);高峰专线59路;高峰专线61路" }, "geometry": { "type": "Point", "coordinates": [ 113.96991, 22.702883 ] } },
{ "type": "Feature", "properties": { "name": "石龙仔公交总站(公交站)", "address": "B643路" }, "geometry": { "type": "Point", "coordinates": [ 113.965988, 22.707586 ] } },
{ "type": "Feature", "properties": { "name": "石凹路中(公交站)", "address": "高峰专线38路;高峰专线91路" }, "geometry": { "type": "Point", "coordinates": [ 113.990555, 22.698137 ] } },
{ "type": "Feature", "properties": { "name": "浪静路口(公交站)", "address": "B780路;M420路;M450路;高峰专线91路" }, "geometry": { "type": "Point", "coordinates": [ 113.989212, 22.69701 ] } },
{ "type": "Feature", "properties": { "name": "久格厂(公交站)", "address": "B890路外环" }, "geometry": { "type": "Point", "coordinates": [ 113.970711, 22.700382 ] } },
{ "type": "Feature", "properties": { "name": "仙湖植物园总站(公交站)", "address": "202路;220路;363路;382路" }, "geometry": { "type": "Point", "coordinates": [ 114.168518, 22.568342 ] } },
{ "type": "Feature", "properties": { "name": "莲塘枫景(公交站)", "address": "113路;214路;336路;B621路;M468路" }, "geometry": { "type": "Point", "coordinates": [ 114.170433, 22.566437 ] } },
{ "type": "Feature", "properties": { "name": "莲塘消防中队(公交站)", "address": "27路;202路;220路;363路;382路;N15路" }, "geometry": { "type": "Point", "coordinates": [ 114.162354, 22.562296 ] } },
{ "type": "Feature", "properties": { "name": "莲塘街道办(公交站)", "address": "27路;113路;214路;333路;336路;B621路;M468路;N15路" }, "geometry": { "type": "Point", "coordinates": [ 114.169151, 22.564093 ] } },
{ "type": "Feature", "properties": { "name": "莲塘消防中队(临时站)(公交站)", "address": "202路" }, "geometry": { "type": "Point", "coordinates": [ 114.162766, 22.561455 ] } },
{ "type": "Feature", "properties": { "name": "鹏基工业区(公交站)", "address": "27路;113路;214路;333路;336路;B621路;M468路" }, "geometry": { "type": "Point", "coordinates": [ 114.165611, 22.56155 ] } },
{ "type": "Feature", "properties": { "name": "鹏基工业区1(公交站)", "address": "333路" }, "geometry": { "type": "Point", "coordinates": [ 114.165657, 22.561554 ] } },
{ "type": "Feature", "properties": { "name": "莲塘小学(公交站)", "address": "214路;B621路;M468路" }, "geometry": { "type": "Point", "coordinates": [ 114.170258, 22.563017 ] } },
{ "type": "Feature", "properties": { "name": "聚宝莲塘路口(临时站)(公交站)", "address": "B621路" }, "geometry": { "type": "Point", "coordinates": [ 114.169373, 22.562313 ] } },
{ "type": "Feature", "properties": { "name": "东湖宾馆(公交站)", "address": "29路;52路;64路;211路;306路;306路区间车;351路;363路..." }, "geometry": { "type": "Point", "coordinates": [ 114.144585, 22.573711 ] } },
{ "type": "Feature", "properties": { "name": "聚宝莲塘路口(公交站)", "address": "B621路;M468路" }, "geometry": { "type": "Point", "coordinates": [ 114.169441, 22.561914 ] } },
{ "type": "Feature", "properties": { "name": "梧桐山新居(公交站)", "address": "113路;214路;333路;336路;B621路;M468路" }, "geometry": { "type": "Point", "coordinates": [ 114.17453, 22.566628 ] } },
{ "type": "Feature", "properties": { "name": "仙湖路口(公交站)", "address": "65路;69路;85路;103路;205路;K113路;M364路;M437路(原M207路)" }, "geometry": { "type": "Point", "coordinates": [ 114.165886, 22.559879 ] } },
{ "type": "Feature", "properties": { "name": "彩世界家园(公交站)", "address": "29路;52路;59路;64路;372路;N3路;N6路" }, "geometry": { "type": "Point", "coordinates": [ 114.143677, 22.577131 ] } },
{ "type": "Feature", "properties": { "name": "布心总站(公交站)", "address": "2路;59路;B840路;N6路" }, "geometry": { "type": "Point", "coordinates": [ 114.143191, 22.573159 ] } },
{ "type": "Feature", "properties": { "name": "聚宝路口(公交站)", "address": "57路;65路;69路;85路;103B路;103路;111路;205路..." }, "geometry": { "type": "Point", "coordinates": [ 114.169144, 22.559853 ] } },
{ "type": "Feature", "properties": { "name": "水库总站(公交站)", "address": "3路;17路" }, "geometry": { "type": "Point", "coordinates": [ 114.143224, 22.566769 ] } },
{ "type": "Feature", "properties": { "name": "水库(公交站)", "address": "23路;29路;52路;64路;211路;306路;306路区间车;308路..." }, "geometry": { "type": "Point", "coordinates": [ 114.143028, 22.567097 ] } },
{ "type": "Feature", "properties": { "name": "莲塘(公交站)", "address": "57路;65路;69路;85路;103B路;103路;111路;205路..." }, "geometry": { "type": "Point", "coordinates": [ 114.172104, 22.5602 ] } },
{ "type": "Feature", "properties": { "name": "景亿山庄(公交站)", "address": "29路;59路;64路;83路;107路;107路大站快车;372路;379路..." }, "geometry": { "type": "Point", "coordinates": [ 114.14183, 22.579363 ] } },
{ "type": "Feature", "properties": { "name": "水榭山(公交站)", "address": "B877路;M459路;高快巴士16路" }, "geometry": { "type": "Point", "coordinates": [ 114.031509, 22.595951 ] } },
{ "type": "Feature", "properties": { "name": "新区大道路口(公交站)", "address": "M459路" }, "geometry": { "type": "Point", "coordinates": [ 114.041443, 22.595203 ] } },
{ "type": "Feature", "properties": { "name": "逸秀新村(公交站)", "address": "B877路;M459路" }, "geometry": { "type": "Point", "coordinates": [ 114.036346, 22.597795 ] } },
{ "type": "Feature", "properties": { "name": "万科金域花园(公交站)", "address": "M342路" }, "geometry": { "type": "Point", "coordinates": [ 114.041405, 22.597483 ] } },
{ "type": "Feature", "properties": { "name": "山水居(公交站)", "address": "B821路" }, "geometry": { "type": "Point", "coordinates": [ 114.04274, 22.571255 ] } },
{ "type": "Feature", "properties": { "name": "新彩隧道口(公交站)", "address": "54路;M223路;M262路;M347路;M347路大站快车;M459路;高峰专线15路;高峰专线71路" }, "geometry": { "type": "Point", "coordinates": [ 114.049232, 22.592604 ] } },
{ "type": "Feature", "properties": { "name": "民乐地铁公交接驳站(公交站)", "address": "234路;M302路;M342路;高峰专线91路" }, "geometry": { "type": "Point", "coordinates": [ 114.048122, 22.594504 ] } },
{ "type": "Feature", "properties": { "name": "民乐地铁接驳站(公交站)", "address": "B657路;M346路" }, "geometry": { "type": "Point", "coordinates": [ 114.048286, 22.594319 ] } },
{ "type": "Feature", "properties": { "name": "龙悦居三期(公交站)", "address": "M459路" }, "geometry": { "type": "Point", "coordinates": [ 114.033066, 22.602188 ] } },
{ "type": "Feature", "properties": { "name": "七支队宿舍(公交站)", "address": "B821路" }, "geometry": { "type": "Point", "coordinates": [ 114.045403, 22.571836 ] } },
{ "type": "Feature", "properties": { "name": "梅林公园(公交站)", "address": "B821路" }, "geometry": { "type": "Point", "coordinates": [ 114.043007, 22.569609 ] } },
{ "type": "Feature", "properties": { "name": "龙悦居公交总站(公交站)", "address": "60路;75路;81路;B654路;高快巴士16路" }, "geometry": { "type": "Point", "coordinates": [ 114.030685, 22.602631 ] } },
{ "type": "Feature", "properties": { "name": "龙悦居(公交站)", "address": "316路;B653路;E3路;M365路(双环线)A线;M365路(双环线)B线;M385路;M459路;高峰专线38路" }, "geometry": { "type": "Point", "coordinates": [ 114.032104, 22.60276 ] } },
{ "type": "Feature", "properties": { "name": "万科金域华府(公交站)", "address": "B653路;M342路;M365路(双环线)A线;M365路(双环线)B线;M385路" }, "geometry": { "type": "Point", "coordinates": [ 114.040916, 22.601103 ] } },
{ "type": "Feature", "properties": { "name": "致远南路(公交站)", "address": "M459路" }, "geometry": { "type": "Point", "coordinates": [ 114.030365, 22.602947 ] } },
{ "type": "Feature", "properties": { "name": "梅林坳驿站(公交站)", "address": "B821路" }, "geometry": { "type": "Point", "coordinates": [ 114.047951, 22.572891 ] } },
{ "type": "Feature", "properties": { "name": "梅林联检站(入关)2(公交站)", "address": "234路" }, "geometry": { "type": "Point", "coordinates": [ 114.050039, 22.594151 ] } },
{ "type": "Feature", "properties": { "name": "白石龙车队总站(公交站)", "address": "620路" }, "geometry": { "type": "Point", "coordinates": [ 114.039699, 22.602422 ] } },
{ "type": "Feature", "properties": { "name": "白石龙南(公交站)", "address": "B653路;M365路(双环线)A线;M365路(双环线)B线" }, "geometry": { "type": "Point", "coordinates": [ 114.035767, 22.603394 ] } },
{ "type": "Feature", "properties": { "name": "白石龙地铁站(公交站)", "address": "B655路;B657路;B877路;E3路;M262路;高峰专线91路" }, "geometry": { "type": "Point", "coordinates": [ 114.042564, 22.601332 ] } },
{ "type": "Feature", "properties": { "name": "坪山体育馆2(公交站)", "address": "M326路;M368路" }, "geometry": { "type": "Point", "coordinates": [ 114.342155, 22.671944 ] } },
{ "type": "Feature", "properties": { "name": "坪山体育馆(公交站)", "address": "B760路" }, "geometry": { "type": "Point", "coordinates": [ 114.344528, 22.674215 ] } },
{ "type": "Feature", "properties": { "name": "坪山体育馆1(公交站)", "address": "B760路;M326路;M368路" }, "geometry": { "type": "Point", "coordinates": [ 114.344795, 22.674444 ] } },
{ "type": "Feature", "properties": { "name": "利雅斯厂(公交站)", "address": "964路" }, "geometry": { "type": "Point", "coordinates": [ 114.35891, 22.669075 ] } },
{ "type": "Feature", "properties": { "name": "赤坳工业区(公交站)", "address": "964路;B765路;B849路" }, "geometry": { "type": "Point", "coordinates": [ 114.35936, 22.667643 ] } },
{ "type": "Feature", "properties": { "name": "竹园村南区(公交站)", "address": "964路;B765路;B849路" }, "geometry": { "type": "Point", "coordinates": [ 114.358437, 22.671385 ] } },
{ "type": "Feature", "properties": { "name": "竹园村(公交站)", "address": "964路;B765路;B849路" }, "geometry": { "type": "Point", "coordinates": [ 114.357658, 22.673819 ] } },
{ "type": "Feature", "properties": { "name": "曾屋村(公交站)", "address": "812路;B811路;M294路" }, "geometry": { "type": "Point", "coordinates": [ 114.348595, 22.677343 ] } },
{ "type": "Feature", "properties": { "name": "坪山比亚迪(公交站)", "address": "M220路;M294路" }, "geometry": { "type": "Point", "coordinates": [ 114.350189, 22.677435 ] } },
{ "type": "Feature", "properties": { "name": "坪山墓园(公交站)", "address": "964路;B765路;B849路" }, "geometry": { "type": "Point", "coordinates": [ 114.361839, 22.665829 ] } },
{ "type": "Feature", "properties": { "name": "比亚迪路口(公交站)", "address": "964路;B765路;B849路;高铁坪山快捷线接驳2线(原M479路)" }, "geometry": { "type": "Point", "coordinates": [ 114.35643, 22.677687 ] } },
{ "type": "Feature", "properties": { "name": "黄沙坑社区(公交站)", "address": "B760路" }, "geometry": { "type": "Point", "coordinates": [ 114.340073, 22.677551 ] } },
{ "type": "Feature", "properties": { "name": "大湾集市(公交站)", "address": "M326路" }, "geometry": { "type": "Point", "coordinates": [ 114.343147, 22.679487 ] } },
{ "type": "Feature", "properties": { "name": "大万世居(公交站)", "address": "M294路" }, "geometry": { "type": "Point", "coordinates": [ 114.342865, 22.67963 ] } },
{ "type": "Feature", "properties": { "name": "华安居(公交站)", "address": "964路;B765路;B849路" }, "geometry": { "type": "Point", "coordinates": [ 114.364494, 22.663885 ] } },
{ "type": "Feature", "properties": { "name": "大万世局(公交站)", "address": "M220路" }, "geometry": { "type": "Point", "coordinates": [ 114.342201, 22.679861 ] } },
{ "type": "Feature", "properties": { "name": "锦龙总站(公交站)", "address": "M447路(原329路)" }, "geometry": { "type": "Point", "coordinates": [ 114.333916, 22.664761 ] } },
{ "type": "Feature", "properties": { "name": "坪环学校(公交站)", "address": "B760路;B811路;M368路" }, "geometry": { "type": "Point", "coordinates": [ 114.347305, 22.681709 ] } },
{ "type": "Feature", "properties": { "name": "坪山江边村(公交站)", "address": "915路" }, "geometry": { "type": "Point", "coordinates": [ 114.353088, 22.681767 ] } },
{ "type": "Feature", "properties": { "name": "中集公司(公交站)", "address": "935路;M326路;M447路(原329路);M458路(原933路)" }, "geometry": { "type": "Point", "coordinates": [ 114.333054, 22.666918 ] } },
{ "type": "Feature", "properties": { "name": "小梅沙(公交站)", "address": "103B路;103路;380A路;380B线;387路;M362路;M438路(原207路区间线);(停运)大梅沙假日专线1路" }, "geometry": { "type": "Point", "coordinates": [ 114.325623, 22.600573 ] } },
{ "type": "Feature", "properties": { "name": "小梅沙公交总站(公交站)", "address": "103B路;103路;380A路" }, "geometry": { "type": "Point", "coordinates": [ 114.326803, 22.601907 ] } },
{ "type": "Feature", "properties": { "name": "梅沙街道办3(公交站)", "address": "380B线" }, "geometry": { "type": "Point", "coordinates": [ 114.313461, 22.598789 ] } },
{ "type": "Feature", "properties": { "name": "梅沙街道办(公交站)", "address": "103B路;103路;380A路;380B线;387路;M362路;M438路(原207路区间线);(停运)N21路..." }, "geometry": { "type": "Point", "coordinates": [ 114.3134, 22.598711 ] } },
{ "type": "Feature", "properties": { "name": "梅沙街道办1(公交站)", "address": "103B路;103路;387路;M362路;M438路(原207路区间线);大梅沙假日专线1路;大梅沙假日专线3路;(停运)N21路..." }, "geometry": { "type": "Point", "coordinates": [ 114.313438, 22.598785 ] } },
{ "type": "Feature", "properties": { "name": "梅沙街道办2(公交站)", "address": "380A路" }, "geometry": { "type": "Point", "coordinates": [ 114.31337, 22.59878 ] } },
{ "type": "Feature", "properties": { "name": "大梅沙站(公交站)", "address": "103路;380A路;M362路;观光线1路" }, "geometry": { "type": "Point", "coordinates": [ 114.310295, 22.599119 ] } },
{ "type": "Feature", "properties": { "name": "海关小梅沙基地(公交站)", "address": "M362路;M438路(原207路区间线)" }, "geometry": { "type": "Point", "coordinates": [ 114.333282, 22.602375 ] } },
{ "type": "Feature", "properties": { "name": "海滨浴场(公交站)", "address": "380A路" }, "geometry": { "type": "Point", "coordinates": [ 114.308586, 22.600212 ] } },
{ "type": "Feature", "properties": { "name": "海滨浴场2(公交站)", "address": "380A路;380B线" }, "geometry": { "type": "Point", "coordinates": [ 114.308525, 22.600317 ] } },
{ "type": "Feature", "properties": { "name": "东部华侨城(公交站)", "address": "103路;308路;387路;J1路;M362路;M437路(原M207路);M438路(原207路区间线);大梅沙假日专线2路..." }, "geometry": { "type": "Point", "coordinates": [ 114.308365, 22.600361 ] } },
{ "type": "Feature", "properties": { "name": "海滨浴场1(公交站)", "address": "103B路;103路;387路;J1路;M437路(原M207路);大梅沙假日专线2路;机场6线;(停运)N21路" }, "geometry": { "type": "Point", "coordinates": [ 114.304428, 22.591902 ] } },
{ "type": "Feature", "properties": { "name": "海滨浴场(公交站)", "address": "103B路;103路;387路;M465路;(停运)N21路" }, "geometry": { "type": "Point", "coordinates": [ 114.30442, 22.591831 ] } },
{ "type": "Feature", "properties": { "name": "海滨浴场2(公交站)", "address": "大梅沙假日专线3路" }, "geometry": { "type": "Point", "coordinates": [ 114.304291, 22.592161 ] } },
{ "type": "Feature", "properties": { "name": "海滨浴场3(公交站)", "address": "308路" }, "geometry": { "type": "Point", "coordinates": [ 114.30407, 22.592369 ] } },
{ "type": "Feature", "properties": { "name": "梅沙医院(公交站)", "address": "308路;380A路;380B线;E12路;M437路(原M207路);M465路;大梅沙假日专线2路;高峰专线58路..." }, "geometry": { "type": "Point", "coordinates": [ 114.305649, 22.601593 ] } },
{ "type": "Feature", "properties": { "name": "万科中心(公交站)", "address": "387路;E12路;M437路(原M207路);M465路;大梅沙假日专线2路" }, "geometry": { "type": "Point", "coordinates": [ 114.304329, 22.599031 ] } },
{ "type": "Feature", "properties": { "name": "大梅沙海滨总站(公交站)", "address": "239路;308路;E12路;J1路;M437路(原M207路);M438路(原207路区间线);M465路;大梅沙假日专线2路..." }, "geometry": { "type": "Point", "coordinates": [ 114.303087, 22.594432 ] } },
{ "type": "Feature", "properties": { "name": "华侨墓园西(公交站)", "address": "M438路(原207路区间线)" }, "geometry": { "type": "Point", "coordinates": [ 114.342514, 22.59585 ] } },
{ "type": "Feature", "properties": { "name": "华侨墓园西门(公交站)", "address": "M362路" }, "geometry": { "type": "Point", "coordinates": [ 114.342552, 22.595881 ] } },
{ "type": "Feature", "properties": { "name": "深湾二路口(公交站)", "address": "M347路;M347路大站快车;M463路;滨海休闲假日专线" }, "geometry": { "type": "Point", "coordinates": [ 113.971756, 22.520199 ] } },
{ "type": "Feature", "properties": { "name": "滨海深湾立交(公交站)", "address": "229路;382路;滨海休闲假日专线" }, "geometry": { "type": "Point", "coordinates": [ 113.97757, 22.520256 ] } },
{ "type": "Feature", "properties": { "name": "滨海沙河东立交(公交站)", "address": "229路;382路" }, "geometry": { "type": "Point", "coordinates": [ 113.962517, 22.519592 ] } },
{ "type": "Feature", "properties": { "name": "滨海深湾立交(公交站)", "address": "M463路" }, "geometry": { "type": "Point", "coordinates": [ 113.962502, 22.519592 ] } },
{ "type": "Feature", "properties": { "name": "瑞河耶纳南门(公交站)", "address": "M486路(原B603、B610线);M487路(原B681线)" }, "geometry": { "type": "Point", "coordinates": [ 113.976349, 22.525312 ] } },
{ "type": "Feature", "properties": { "name": "红树西岸(公交站)", "address": "M486路(原B603、B610线)" }, "geometry": { "type": "Point", "coordinates": [ 113.967102, 22.524796 ] } },
{ "type": "Feature", "properties": { "name": "红树湾地铁站(公交站)", "address": "M486路(原B603、B610线)" }, "geometry": { "type": "Point", "coordinates": [ 113.968124, 22.525234 ] } },
{ "type": "Feature", "properties": { "name": "沙河东公交总站(公交站)", "address": "M313路;M355路;M487路(原B681线);高峰专线30路" }, "geometry": { "type": "Point", "coordinates": [ 113.967987, 22.52523 ] } },
{ "type": "Feature", "properties": { "name": "望海东滨路口(公交站)", "address": "B816路;M493路" }, "geometry": { "type": "Point", "coordinates": [ 113.95137, 22.503944 ] } },
{ "type": "Feature", "properties": { "name": "欢乐海岸总站(公交站)", "address": "B706路;M486路(原B603、B610线)" }, "geometry": { "type": "Point", "coordinates": [ 113.989792, 22.521038 ] } },
{ "type": "Feature", "properties": { "name": "白石路中(公交站)", "address": "45路;49路;M486路(原B603、B610线);M487路(原B681线)" }, "geometry": { "type": "Point", "coordinates": [ 113.980888, 22.525938 ] } },
{ "type": "Feature", "properties": { "name": "滨海沙河西立交(公交站)", "address": "滨海休闲假日专线" }, "geometry": { "type": "Point", "coordinates": [ 113.957954, 22.520872 ] } },
{ "type": "Feature", "properties": { "name": "瑞河耶纳北门(公交站)", "address": "45路;49路;M486路(原B603、B610线);M487路(原B681线)" }, "geometry": { "type": "Point", "coordinates": [ 113.977531, 22.526953 ] } },
{ "type": "Feature", "properties": { "name": "流花山公园(公交站)", "address": "90路;123路;滨海休闲假日专线" }, "geometry": { "type": "Point", "coordinates": [ 113.953178, 22.515625 ] } },
{ "type": "Feature", "properties": { "name": "海滨实验小学(公交站)", "address": "58路;M313路;M486路(原B603、B610线);M487路(原B681线)" }, "geometry": { "type": "Point", "coordinates": [ 113.967064, 22.52648 ] } },
{ "type": "Feature", "properties": { "name": "火炬塔广场(公交站)", "address": "滨海休闲假日专线" }, "geometry": { "type": "Point", "coordinates": [ 113.953629, 22.516901 ] } },
{ "type": "Feature", "properties": { "name": "日出剧场(公交站)", "address": "B816路;M493路;滨海休闲假日专线" }, "geometry": { "type": "Point", "coordinates": [ 113.951599, 22.498476 ] } },
{ "type": "Feature", "properties": { "name": "华侨城中学高中部(公交站)", "address": "M486路(原B603、B610线);M487路(原B681线)" }, "geometry": { "type": "Point", "coordinates": [ 113.968597, 22.528065 ] } },
{ "type": "Feature", "properties": { "name": "深湾二路(公交站)", "address": "M486路(原B603、B610线);M487路(原B681线);高峰专线30路" }, "geometry": { "type": "Point", "coordinates": [ 113.97068, 22.529028 ] } },
{ "type": "Feature", "properties": { "name": "深圳湾口岸港方口岸区公共运输交匯处(公交站)", "address": "新界区专线小巴618路" }, "geometry": { "type": "Point", "coordinates": [ 113.948565, 22.503842 ] } }
]
}
